[
  {"prefix":"1A","name":"Sovereign Military Order of Malta","lat":41.902,"lon":12.453,"area":1},
  {"prefix":"1A1","name":"Spratly Is.","lat":9.85,"lon":114.2,"area":1},
  {"prefix":"3B6","name":"Agalega & St. Brandon Is.","lat":-10.4,"lon":56.6,"area":2},
  {"prefix":"3C0","name":"Annobon I.","lat":-1.43,"lon":5.63,"area":2},
  {"prefix":"3D2/C","name":"Conway Reef","lat":-21.75,"lon":174.63,"area":1},
  {"prefix":"3D2/R","name":"Rotuma I.","lat":-12.5,"lon":177.07,"area":2},
  {"prefix":"3Y0","name":"Bouvet","lat":-54.42,"lon":3.38,"area":1},
  {"prefix":"3Y/P","name":"Peter 1 I.","lat":-68.84,"lon":-90.58,"area":1},
  {"prefix":"4U1ITU","name":"ITU HQ","lat":46.226,"lon":6.14,"area":1},
  {"prefix":"4U1UN","name":"United Nations HQ","lat":40.75,"lon":-73.97,"area":1},
  {"prefix":"9M2","name":"West Malaysia","lat":3.8,"lon":102.3,"area":18},
  {"prefix":"9M6","name":"East Malaysia","lat":5.5,"lon":116.5,"area":14},
  {"prefix":"BS7","name":"Scarborough Reef","lat":15.08,"lon":117.75,"area":1},
  {"prefix":"BV9P","name":"Pratas I.","lat":20.7,"lon":116.73,"area":1},
  {"prefix":"CE0X","name":"San Felix & San Ambrosio","lat":-26.28,"lon":-80.1,"area":1},
  {"prefix":"CE0Y","name":"Easter I.","lat":-27.12,"lon":-109.37,"area":4},
  {"prefix":"CE0Z","name":"Juan Fernandez Is.","lat":-33.64,"lon":-78.83,"area":2},
  {"prefix":"CY0","name":"Sable I.","lat":43.93,"lon":-59.91,"area":1},
  {"prefix":"CY9","name":"St. Paul I.","lat":47.2,"lon":-60.14,"area":1},
  {"prefix":"CT3","name":"Madeira Is.","lat":32.76,"lon":-16.96,"area":4},
  {"prefix":"CU","name":"Azores","lat":38.62,"lon":-28.01,"area":6},
  {"prefix":"E51N","name":"North Cook Is.","lat":-10.0,"lon":-161.1,"area":2},
  {"prefix":"E51S","name":"South Cook Is.","lat":-21.24,"lon":-159.78,"area":3},
  {"prefix":"EA6","name":"Balearic Is.","lat":39.62,"lon":2.99,"area":4},
  {"prefix":"EA8","name":"Canary Is.","lat":28.29,"lon":-16.62,"area":6},
  {"prefix":"EA9","name":"Ceuta & Melilla","lat":35.89,"lon":-5.31,"area":2},
  {"prefix":"FG","name":"Guadeloupe","lat":16.27,"lon":-61.55,"area":3},
  {"prefix":"FH","name":"Mayotte","lat":-12.83,"lon":45.17,"area":2},
  {"prefix":"FK/C","name":"Chesterfield Is.","lat":-19.87,"lon":158.32,"area":1},
  {"prefix":"FM","name":"Martinique","lat":14.67,"lon":-61.0,"area":3},
  {"prefix":"FO/A","name":"Austral Is.","lat":-23.37,"lon":-149.48,"area":2},
  {"prefix":"FO/C","name":"Clipperton I.","lat":10.3,"lon":-109.22,"area":1},
  {"prefix":"FO/M","name":"Marquesas Is.","lat":-9.77,"lon":-139.03,"area":2},
  {"prefix":"FR","name":"Reunion I.","lat":-21.13,"lon":55.53,"area":3},
  {"prefix":"FT/G","name":"Glorioso Is.","lat":-11.55,"lon":47.29,"area":1},
  {"prefix":"FT/J","name":"Juan de Nova, Europa","lat":-22.35,"lon":40.36,"area":1},
  {"prefix":"FT/T","name":"Tromelin I.","lat":-15.88,"lon":54.52,"area":1},
  {"prefix":"FT5W","name":"Crozet I.","lat":-46.42,"lon":51.86,"area":1},
  {"prefix":"FT5X","name":"Kerguelen Is.","lat":-49.35,"lon":69.2,"area":1},
  {"prefix":"FT5Z","name":"Amsterdam & St. Paul Is.","lat":-38.72,"lon":77.54,"area":1},
  {"prefix":"FY","name":"French Guiana","lat":4.0,"lon":-53.0,"area":6},
  {"prefix":"GI","name":"Northern Ireland","lat":54.79,"lon":-6.49,"area":4},
  {"prefix":"GM","name":"Scotland","lat":56.49,"lon":-4.2,"area":8},
  {"prefix":"GW","name":"Wales","lat":52.37,"lon":-3.78,"area":4},
  {"prefix":"H40","name":"Temotu Province","lat":-10.72,"lon":165.8,"area":2},
  {"prefix":"HC8","name":"Galapagos Is.","lat":-0.62,"lon":-90.35,"area":3},
  {"prefix":"HK0A","name":"San Andres & Providencia","lat":12.58,"lon":-81.69,"area":2},
  {"prefix":"HK0M","name":"Malpelo I.","lat":3.98,"lon":-81.59,"area":1},
  {"prefix":"IS0","name":"Sardinia","lat":40.12,"lon":9.01,"area":5},
  {"prefix":"JD1/M","name":"Minami Torishima","lat":24.28,"lon":153.98,"area":1},
  {"prefix":"JD1/O","name":"Ogasawara","lat":27.08,"lon":142.19,"area":2},
  {"prefix":"JW","name":"Svalbard","lat":78.22,"lon":15.65,"area":3},
  {"prefix":"JX","name":"Jan Mayen","lat":70.98,"lon":-8.51,"area":1},
  {"prefix":"KG4","name":"Guantanamo Bay","lat":19.91,"lon":-75.15,"area":1},
  {"prefix":"KH1","name":"Baker & Howland Is.","lat":0.81,"lon":-176.62,"area":1},
  {"prefix":"KH3","name":"Johnston I.","lat":16.73,"lon":-169.53,"area":1},
  {"prefix":"KH4","name":"Midway I.","lat":28.21,"lon":-177.38,"area":1},
  {"prefix":"KH5","name":"Palmyra & Jarvis Is.","lat":5.88,"lon":-162.08,"area":1},
  {"prefix":"KH6","name":"Hawaii","lat":20.8,"lon":-156.33,"area":12},
  {"prefix":"KH7K","name":"Kure I.","lat":28.42,"lon":-178.33,"area":1},
  {"prefix":"KH8/S","name":"Swains I.","lat":-11.05,"lon":-171.09,"area":1},
  {"prefix":"KH9","name":"Wake I.","lat":19.29,"lon":166.62,"area":1},
  {"prefix":"KL","name":"Alaska","lat":64.2,"lon":-150.0,"area":20},
  {"prefix":"KP1","name":"Navassa I.","lat":18.41,"lon":-75.01,"area":1},
  {"prefix":"KP5","name":"Desecheo I.","lat":18.39,"lon":-67.48,"area":1},
  {"prefix":"OJ0","name":"Market Reef","lat":60.3,"lon":19.13,"area":1},
  {"prefix":"PJ4","name":"Bonaire","lat":12.18,"lon":-68.24,"area":2},
  {"prefix":"PJ5","name":"Saba & St. Eustatius","lat":17.54,"lon":-63.04,"area":2},
  {"prefix":"PY0F","name":"Fernando de Noronha","lat":-3.85,"lon":-32.42,"area":2},
  {"prefix":"PY0S","name":"St. Peter & St. Paul Rocks","lat":0.92,"lon":-29.35,"area":1},
  {"prefix":"PY0T","name":"Trindade & Martim Vaz Is.","lat":-20.5,"lon":-29.32,"area":1},
  {"prefix":"R1FJ","name":"Franz Josef Land","lat":80.62,"lon":57.2,"area":1},
  {"prefix":"SV/A","name":"Mount Athos","lat":40.24,"lon":24.25,"area":1},
  {"prefix":"SV5","name":"Dodecanese","lat":36.2,"lon":28.0,"area":3},
  {"prefix":"SV9","name":"Crete","lat":35.24,"lon":24.91,"area":4},
  {"prefix":"T30","name":"W. Kiribati","lat":1.87,"lon":-157.36,"area":2},
  {"prefix":"T31","name":"C. Kiribati","lat":-4.68,"lon":-174.52,"area":2},
  {"prefix":"T32","name":"E. Kiribati","lat":1.87,"lon":-157.36,"area":2},
  {"prefix":"T33","name":"Banaba I.","lat":-0.86,"lon":169.54,"area":1},
  {"prefix":"TI9","name":"Cocos I.","lat":5.52,"lon":-87.06,"area":1},
  {"prefix":"TK","name":"Corsica","lat":42.17,"lon":9.08,"area":4},
  {"prefix":"UA/E","name":"European Russia","lat":55.75,"lon":37.61,"area":18},
  {"prefix":"UA/AS","name":"Asiatic Russia","lat":62.03,"lon":129.73,"area":18},
  {"prefix":"UA2","name":"Kaliningrad","lat":54.71,"lon":20.51,"area":2},
  {"prefix":"VP0G","name":"South Georgia I.","lat":-54.43,"lon":-36.72,"area":1},
  {"prefix":"VP0H","name":"South Shetland Is.","lat":-62.07,"lon":-58.4,"area":1},
  {"prefix":"VP0O","name":"South Orkney Is.","lat":-60.63,"lon":-45.6,"area":1},
  {"prefix":"VP0S","name":"South Sandwich Is.","lat":-57.75,"lon":-26.45,"area":1},
  {"prefix":"VP6/D","name":"Ducie I.","lat":-24.68,"lon":-124.79,"area":1},
  {"prefix":"VU4","name":"Andaman & Nicobar Is.","lat":11.67,"lon":92.76,"area":3},
  {"prefix":"VU7","name":"Lakshadweep Is.","lat":10.57,"lon":72.64,"area":2},
  {"prefix":"VQ9","name":"Chagos Is.","lat":-7.31,"lon":72.41,"area":2},
  {"prefix":"VK0H","name":"Heard I.","lat":-53.1,"lon":73.5,"area":1},
  {"prefix":"VK0M","name":"Macquarie I.","lat":-54.62,"lon":158.85,"area":1},
  {"prefix":"VK9C","name":"Cocos (Keeling) Is.","lat":-12.17,"lon":96.83,"area":1},
  {"prefix":"VK9L","name":"Lord Howe I.","lat":-31.55,"lon":159.08,"area":2},
  {"prefix":"VK9M","name":"Mellish Reef","lat":-17.4,"lon":155.87,"area":1},
  {"prefix":"VK9W","name":"Willis I.","lat":-16.29,"lon":149.97,"area":1},
  {"prefix":"VK9X","name":"Christmas I.","lat":-10.49,"lon":105.63,"area":2},
  {"prefix":"XA4","name":"Revillagigedo","lat":18.77,"lon":-110.96,"area":1},
  {"prefix":"YV0","name":"Aves I.","lat":15.67,"lon":-63.62,"area":1},
  {"prefix":"ZC4","name":"UK Sovereign Base Areas on Cyprus","lat":34.59,"lon":32.98,"area":1},
  {"prefix":"ZD8","name":"Ascension I.","lat":-7.95,"lon":-14.37,"area":1},
  {"prefix":"ZD9","name":"Tristan da Cunha & Gough I.","lat":-37.11,"lon":-12.28,"area":1},
  {"prefix":"ZK3","name":"Tokelau Is.","lat":-9.2,"lon":-171.85,"area":1},
  {"prefix":"ZL7","name":"Chatham Is.","lat":-43.95,"lon":-176.56,"area":1},
  {"prefix":"ZL8","name":"Kermadec Is.","lat":-29.27,"lon":-177.92,"area":1},
  {"prefix":"ZL9","name":"New Zealand Subantarctic Islands","lat":-50.75,"lon":166.1,"area":1},
  {"prefix":"ZS8","name":"Prince Edward & Marion Is.","lat":-46.88,"lon":37.83,"area":1}
]
